[
  {
    "name": "HLX_T06",
    "class": "ServoTurnout",
    "address": "1856",  
    "pin": 2,
    "inverted": true,
    "powerPin":22,
    "operationTime": 3000,
    "range":25,
    "location":"Helix",
    "comment": "AMV 06 - ponta triângulo - Soledade x Barra do Piraí"    
  },
  {
    "name":"STA_T01",
    "class":"ServoTurnout",
    "address":"1700",
    "pin": 3,
    "inverted": false,
    "powerPin":26,
    "frogPin":28,
    "invertedFrog":true,
    "operationTime":1000,
    "range":10
  },
  {
    "name":"STA_T02",
    "class":"ServoTurnout",
    "address":"1701",
    "pin": 4,
    "inverted": true,
    "powerPin":30,
    "frogPin":32,
    "invertedFrog":false,
    "operationTime":1000
  },
  {
    "name":"STA_T03",
    "class":"ServoTurnout",
    "address":"1702",
    "pin": 5,
    "inverted": false,
    "powerPin":34,
    "frogPin":36,
    "invertedFrog":true,
    "operationTime":1000,
    "range":25
  },
  {
    "name":"STA_T04",
    "class":"ServoTurnout",
    "address":"1703",
    "pin": 6,
    "inverted": false,
    "powerPin":23,
    "frogPin":25,
    "operationTime":1000
  },
  {
    "name":"STA_T05",
    "class":"ServoTurnout",
    "address":"1704",
    "pin": 7,
    "inverted": true,
    "powerPin":27,
    "frogPin":29,
    "invertedFrog":true,
    "operationTime":1000
  },
  {
    "name":"STA_T06",
    "class":"ServoTurnout",
    "address":"1705",
    "pin": 8,
    "inverted": true,
    "powerPin":31,
    "frogPin":33,
    "invertedFrog":true,
    "operationTime":1000,
    "range":20
  },
  {
    "name":"STA_T07",
    "class":"ServoTurnout",
    "address":"1706",
    "pin": 9,
    "inverted": true,
    "powerPin":35,
    "frogPin":37,
    "invertedFrog":true,
    "operationTime":1000
  },
  {
    "name":"STA_T08",
    "class":"ServoTurnout",
    "address":"1707",
    "pin": 10,
    "inverted": true,
    "powerPin":38,
    "frogPin":39,
    "invertedFrog":true,
    "operationTime":1000
  },
  {
    "name":"STA_T09",
    "class":"ServoTurnout",
    "address":"1708",
    "pin": 11,
    "inverted": true,
    "powerPin":40,
    "frogPin":41,
    "invertedFrog":true,
    "operationTime":1000,
    "comment":"Accesso a llinha STA 11 e STA_T10 (aberto)"
  },
  {
    "name":"STA_T10",
    "class":"ServoTurnout",
    "address":"1709",
    "pin": 12,
    "inverted": true,
    "powerPin":42,
    "frogPin":43,
    "invertedFrog":true,
    "operationTime":1000,
    "range":20,
    "comment":"Acesso a linhas STA 09 (normal) e STA 10 (aberto)"
  },

  {
    "name": "STA_P01",
    "class": "Output",
    "address": "1710",
    "pin": 54,
    "inverted": false,
    "ignoreSavedState": true
  },
  {
    "name": "STA_P02",
    "class": "Output",
    "address": "1711",
    "pin": 55,
    "inverted":true,
    "ignoreSavedState": true
  },
  {
    "name": "STA_P03",
    "class": "Output",
    "address": "1712",
    "pin": 56,
    "inverted":true,
    "ignoreSavedState": true 
  },
  {
    "name": "STA_P04",
    "class": "Output",
    "address": "1713", 
    "pin": 57,
    "inverted":true,
    "ignoreSavedState": true
  },
  {
    "name": "STA_P05",
    "class": "Output",
    "address": "1714",
    "pin": 58,
    "inverted":true,
    "ignoreSavedState": true
  },
  {
    "name": "STA_P06",
    "class": "Output",
    "address": "1715",
    "pin": 59,
    "inverted":true,
    "ignoreSavedState": true
  },
  {
    "name": "STA_P07",
    "class": "Output",
    "address": "1716",
    "pin": 60,
    "inverted":true,
    "ignoreSavedState": true
  },
  {
    "name": "STA_P08",
    "class": "Output",
    "address": "1717",
    "pin": 61,
    "inverted":true,
    "ignoreSavedState": true
  },
  {
    "name": "STA_P09",
    "class": "Output",
    "address": "1718",
    "pin": 62,
    "inverted":true,
    "ignoreSavedState": true
  },
  {
    "name": "STA_P10",
    "class": "Output",
    "address": "1719",
    "pin": 63,
    "inverted":true,
    "ignoreSavedState": true
  },
  {
    "name": "STA_P11",
    "class": "Output",
    "address": "1720",
    "pin": 64,
    "inverted":true,
    "ignoreSavedState": true
  },
  {
    "name":"STA_DENT_YT01",
    "class":"Sensor",
    "pin":14,
    "address":"1749",
    "pullup":true,
    "inverted":false,
    "activateDelay":0,
    "deactivateDelay":0,
    "broken":true
  },
  {
    "name":"STA_DENT_MT01",
    "class":"Sensor",
    "pin":15,
    "address":"1750",
    "pullup":true,
    "inverted":false,
    "activateDelay":0,
    "deactivateDelay":0,
    "broken":true
  },
  {
    "name":"SL_BP_MAIN_D03",
    "class":"Sensor",
    "pin":65,
    "address":"1653",
    "pullup":true,
    "inverted":true,
    "startDelay":5,
    "activateDelay":0,
    "deactivateDelay":15,
    "location":"Soledade",
    "comment":"Sensor infrared 03 - Principal Soledade x Barra - Entrada AMV Triângulo"
  },
  {
    "name":"SL_BP_MAIN_D04",
    "class":"Sensor",
    "pin":66,
    "address":"1654",
    "pullup":true,
    "inverted":true,
    "startDelay":5,
    "activateDelay":0,
    "deactivateDelay":15,
    "location":"Soledade",
    "comment":"Sensor infrared 04 - Principal Soledade x Barra - Perna Triângulo para o staging"
  },
  {
    "name":"SL_BP_MAIN_D05",
    "class":"Sensor",
    "pin":67,
    "address":"1655",
    "pullup":true,
    "inverted":true,
    "startDelay":5,
    "activateDelay":0,
    "deactivateDelay":15,
    "location":"Soledade",
    "comment":"Sensor infrared 05 - Principal Soledade x Barra - Perna Triângulo para subir helix"
  }
]